stop_name,parent_station,stop_id,stop_lat,stop_lon,location_type
Hallo1,,9999998,51.69054,5.293723,0
Hallo2,,9999999,51.69054,5.293723,0
's-Hertogenbosch,,304570,51.69054,5.293723,1
's-Hertogenbosch,304570,476764,51.69054,5.293723,
Aachen Hbf,651089,393590,50.76794,6.090865,
Aachen Süd(Gr),,345926,50.731915,6.04541,1
Aachen Süd(Gr),345926,593839,50.731915,6.04541,
"Aachen, Hbf,Aachen",,651089,50.767723,6.092051,1
Aalen Hauptbahnhof,,75824,48.841602,10.096031,1
Aalen Hbf,75824,4516,48.84168,10.09613,
Altena (Westfalen),,208040,51.301826,7.668091,1
Altena(Westf),208040,47979,51.302013,7.668693,
Altena(Westf),208040,657085,51.301956,7.668576,
Altenbeken,,569773,51.766094,8.943016,1
Altenbeken,569773,337293,51.766296,8.94298,
Amersfoort Centraal,,47223,52.153465,5.373909,1
Amersfoort Centraal,47223,480158,52.153465,5.373909,
Amsterdam Centraal,,547065,52.37919,4.899431,1
Amsterdam Centraal,547065,618499,52.37919,4.899431,
Amstetten NÖ,,641123,48.121605,14.878112,1
Amstetten NÖ,641123,642412,48.121605,14.878112,
Andernach,569733,471924,50.434544,7.404839,
Andernach Bahnhof,,569733,50.434544,7.40484,1
Angermünde,627386,150579,53.015793,13.995908,
Angermünde,627386,534857,53.01574,13.995672,
"Angermünde, Bahnhof",,627386,53.015823,13.995871,1
Anklam,458509,16261,53.85625,13.701518,
Anklam,458509,1656,53.8563,13.701554,
Anklam Bahnhof,,458509,53.855984,13.701563,1
Ansbach,,279760,49.29803,10.578246,1
Ansbach,279760,175054,49.298794,10.577393,
Ansbach Bahnhof,279760,278196,49.29902,10.577851,
Ansbach Bahnhof,279760,572823,49.299145,10.578166,
Ansbach Bahnhof,279760,611554,49.298897,10.577779,
Apeldoorn,,382494,52.20943,5.968491,1
Apeldoorn,382494,110821,52.20943,5.968491,
Arnhem Centraal,,244685,51.98478,5.901003,1
Arnhem Centraal,244685,42767,51.98478,5.901003,
Aschaffenburg Hbf,,596416,49.980556,9.1437,1
Aschaffenburg Hbf,596416,143631,49.980556,9.143697,
Aschaffenburg Hbf,596416,186810,49.98065,9.14343,
Aschaffenburg Hbf,596416,310803,49.980797,9.14343,
Attnang-Puchheim,,591897,48.012802,13.720719,1
Attnang-Puchheim,591897,419941,48.012802,13.720719,
Augsburg Hbf,,268006,48.36544,10.885569,1
Augsburg Hbf,268006,142805,48.365673,10.885892,
Augsburg Hbf,268006,421523,48.365532,10.885533,
Augsburg Hbf,268006,547596,48.36546,10.885353,
Augsburg Hbf,268006,8057,48.3656,10.885713,
Augustfehn,,146138,53.220894,7.759622,1
Augustfehn,146138,122184,53.220844,7.75963,
Augustfehn,146138,403894,53.220943,7.759614,
Bad Bentheim,325838,468873,52.309853,7.157776,
Bad Bentheim,325838,474966,52.30978,7.157785,
Bad Bentheim Bahnhof,,325838,52.30953,7.158737,1
Bad Bentheim(Gr),,42884,52.3091,7.04016,1
Bad Bentheim(Gr),42884,638927,52.3091,7.04016,
Bad Bevensen,,489570,53.078247,10.574141,1
Bad Bevensen,489570,285208,53.07822,10.574081,
Bad Bevensen,489570,442658,53.078274,10.574201,
Bad Endorf,,442869,47.905067,12.301556,1
Bad Endorf,442869,216581,47.904694,12.302518,
Bad Endorf,442869,69963,47.904564,12.302715,
Bad Gastein,,304160,47.111774,13.131945,1
Bad Gastein,304160,606318,47.111774,13.131945,
Bad Hersfeld,,91448,50.869633,9.716182,1
Bad Hersfeld,91448,206936,50.869633,9.716182,
Bad Hofgastein,,600157,47.195713,13.100939,1
Bad Hofgastein,600157,58668,47.195713,13.100939,
Bad Kleinen,414428,149557,53.766945,11.466213,
Bad Kleinen,414428,456161,53.766644,11.466456,
Bad Kleinen Bhf,,414428,53.76746,11.466429,1
Bad Nauheim,477841,532274,50.367695,8.749241,
Bad Nauheim Bahnhof,,477841,50.367798,8.748327,1
Bad Oeynhausen,615296,15321,52.205322,8.795944,
Bad Oeynhausen,615296,635279,52.205257,8.795962,
"Bad Oeynhausen, Bf/ZOB",,615296,52.205353,8.79916,1
Bad Schandau,244896,400710,50.919315,14.137713,
Bad Schandau,244896,583326,50.91921,14.137704,
Bad Schandau Nationalparkbahnhof,,244896,50.91927,14.138099,1
Bad Zwischenahn,,603221,53.182568,8.002996,1
Bad Zwischenahn,603221,428751,53.182713,8.002593,
Baden(CH),,292306,47.476425,8.307709,1
Baden(CH),292306,345892,47.476425,8.307709,
Baden-Baden,,429451,48.7902,8.191036,1
Baden-Baden,429451,639448,48.79032,8.190731,
Baden-Baden,429451,659104,48.7903,8.190803,
Baden-Baden,429451,660090,48.790478,8.190417,
"Bahnhof, Engen",197969,360284,47.85621,8.772516,
Bamberg,,222168,49.90076,10.899484,1
Bamberg,222168,555661,49.900597,10.899735,
Bamberg,222168,613308,49.90076,10.899489,
Bamberg,222168,633521,49.900574,10.900122,
Basel Bad Bf,,489745,47.567287,7.607805,1
Basel Bad Bf,489745,46877,47.567287,7.607805,
Basel SBB,,442341,47.547405,7.589551,1
Basel SBB,442341,361309,47.547405,7.589551,
Bebra,,293630,50.969566,9.797788,1
Bebra,293630,520180,50.969566,9.797788,
Bensheim,285196,126143,49.681423,8.616721,
Bensheim,285196,185676,49.681328,8.616717,
"Bensheim, Bahnhof",,285196,49.681805,8.616955,1
Bergen Bahnhof,,142890,54.420822,13.418737,1
Bergen auf Rügen,142890,152137,54.42034,13.417668,
Bergen auf Rügen,142890,165461,54.420414,13.417534,
Berlin Gesundbrunnen,184599,117444,52.548885,13.39039,
Berlin Gesundbrunnen,184599,28462,52.548794,13.3904,
Berlin Gesundbrunnen,184599,302708,52.54869,13.390501,
Berlin Gesundbrunnen,184599,328554,52.548485,13.390691,
Berlin Gesundbrunnen,184599,522579,52.548386,13.390704,
Berlin Gesundbrunnen,184599,99237,52.548573,13.390519,
Berlin Hbf,208737,103326,52.52496,13.368911,
Berlin Hbf,208737,134401,52.52506,13.369167,
Berlin Hbf,208737,139710,52.524967,13.369527,
Berlin Hbf,208737,205708,52.525223,13.369887,
Berlin Hbf,208737,313509,52.524788,13.369667,
Berlin Hbf,208737,445536,52.52488,13.369627,
Berlin Hbf,208737,530358,52.52511,13.369472,
Berlin Hbf,208737,570255,52.525143,13.369612,
Berlin Hbf,208737,630844,52.52519,13.369752,
Berlin Hbf,208737,637626,52.524998,13.369061,
Berlin Hbf,208737,652899,52.525097,13.369321,
Berlin Ostbahnhof,614574,206875,52.510414,13.435172,
Berlin Ostbahnhof,614574,425803,52.510254,13.435024,
Berlin Ostbahnhof,614574,434568,52.510178,13.434942,
Berlin Ostbahnhof,614574,476508,52.510242,13.434586,
Berlin Ostbahnhof,614574,564656,52.510475,13.43524,
Berlin Ostkreuz,264082,275621,52.503128,13.469622,
Berlin Ostkreuz,264082,358280,52.50304,13.468615,
Berlin Ostkreuz,264082,434674,52.502907,13.468553,
Berlin Ostkreuz,264082,549495,52.503067,13.469961,
Berlin Südkreuz,373482,225327,52.475685,13.365454,
Berlin Südkreuz,373482,231805,52.475433,13.365603,
Berlin Südkreuz,373482,28,52.47565,13.365612,
Berlin Südkreuz,373482,486855,52.475925,13.365291,
Berlin Südkreuz,373482,538574,52.475887,13.365455,
Berlin Südkreuz,373482,67711,52.475407,13.365754,
Berlin Zoologischer Garten,98302,227637,52.507717,13.332555,
Berlin Zoologischer Garten,98302,485608,52.507652,13.332804,
Berlin Zoologischer Garten,98302,558763,52.50762,13.332927,
Berlin-Charlottenburg,220479,587225,52.504173,13.301819,
Berlin-Lichtenberg,139994,264634,52.510002,13.49649,
Berlin-Spandau,119089,156044,52.5346,13.197163,
Berlin-Spandau,119089,452052,52.534542,13.197124,
Berlin-Spandau,119089,486848,52.534485,13.1971,
Berlin-Spandau,119089,77336,52.534668,13.197191,
Berlin-Wannsee,195961,367798,52.421215,13.180006,
Berlin-Wannsee,195961,502659,52.421158,13.180074,
Bern,,371560,46.948833,7.439131,1
Bern,371560,135995,46.948833,7.439131,
Bernau(b Berlin),243391,186160,52.675426,13.591859,
Bernau(b Berlin),243391,463642,52.67533,13.592016,
Biberach ZOB/Bahnhof,,186573,48.101456,9.792795,1
Biberach(Riß),186573,292764,48.101994,9.793155,
Biberach(Riß),186573,295005,48.101936,9.792939,
Biederitz,,438390,52.152714,11.716462,1
Biederitz,438390,452752,52.15271,11.716466,
Bielefeld Hbf,,423423,52.02941,8.533339,1
Bielefeld Hbf,423423,117781,52.029522,8.533106,
Bielefeld Hbf,423423,513212,52.02962,8.532917,
Bielefeld Hbf,423423,611246,52.029263,8.532722,
Bingen(Rhein) Hbf,128300,318510,49.969147,7.882717,
"Bingen, Hauptbahnhof",,128300,49.96874,7.883543,1
Binz (Ostseebad),,577561,54.404823,13.600502,1
Bischofshofen,,393174,47.41786,13.219888,1
Bischofshofen,393174,480641,47.41786,13.219888,
Bitterfeld,,129391,51.62286,12.316855,1
Bitterfeld,129391,210872,51.62286,12.31685,
Bludenz,,536712,47.154724,9.814564,1
Bludenz,536712,11324,47.154724,9.814564,
Bochnia,,313639,49.9773,20.430775,1
Bochnia,313639,670261,49.9773,20.430775,
Bochum Hbf,,12842,51.479465,7.223335,1
Bochum Hbf,12842,10315,51.478394,7.222859,
Bochum Hbf,12842,507918,51.478607,7.223275,
Bochum Hbf,12842,596702,51.478252,7.223012,
Bochum Hbf,12842,99541,51.47853,7.222715,
Bohumin,,333421,49.90073,18.359444,1
Bohumin,333421,120476,49.90073,18.359444,
Bologna Centrale,,145751,44.50614,11.343411,1
Bologna Centrale,145751,69062,44.50614,11.343411,
Bolzano/Bozen,,486301,46.496376,11.358791,1
Bolzano/Bozen,486301,245717,46.496376,11.358791,
Bondorf,,174325,48.52327,8.827879,1
Bondorf(b Herrenberg),174325,219786,48.52329,8.827852,
Bondorf(b Herrenberg),174325,525580,48.52328,8.827735,
Bonn Beuel Bf,,72378,50.738476,7.127656,1
Bonn Hbf,,81881,50.732006,7.097131,1
Bonn Hbf,81881,115096,50.73196,7.097364,
Bonn Hbf,81881,344899,50.731834,7.097275,
Bonn Hbf,81881,463765,50.73197,7.098954,
Bonn-Beuel,72378,449112,50.738205,7.127862,
Bonn-Beuel,72378,481958,50.737896,7.12815,
Brandenburg Hbf,616380,108753,52.40021,12.565134,
Brandenburg Hbf,616380,227763,52.400276,12.565075,
"Brandenburg, Hauptbahnhof",,616380,52.400795,12.566036,1
Bratislava hl.st.,,87701,48.15891,17.106466,1
Bratislava hl.st.,87701,144713,48.15891,17.106466,
Braunschweig Hbf,129256,258681,52.25227,10.54085,
Braunschweig Hbf,129256,643101,52.25223,10.540921,
"Braunschweig, Hauptbahnhof",,129256,52.252644,10.539547,1
Breclav,,308056,48.7539,16.893236,1
Breclav,308056,188484,48.7539,16.893236,
Breclav(Gr),,408154,48.71265,16.86837,1
Breclav(Gr),408154,627259,48.71265,16.86837,
Bregenz,,230451,47.503002,9.739627,1
Bregenz,230451,356166,47.503002,9.739627,
Bregenz Riedenburg,,154777,47.49291,9.721313,1
Bregenz Riedenburg,154777,107837,47.49291,9.721313,
Bremen Hbf,,540775,53.083454,8.813719,1
Bremen Hbf,540775,286445,53.08348,8.813834,
Bremen Hbf,540775,72383,53.083256,8.812798,
Bremerhaven Hbf,,17001,53.534832,8.599605,1
Bremerhaven Hbf,17001,218907,53.534767,8.599834,
Bremerhaven Hbf,17001,590517,53.53489,8.599382,
Bremerhaven-Lehe,,66314,53.566425,8.600774,1
Bremerhaven-Lehe,66314,126250,53.5664,8.600854,
Bremerhaven-Lehe,66314,443803,53.56645,8.600694,
Brennero/Brenner,,103065,47.002342,11.505426,1
Brennero/Brenner,103065,618688,47.002342,11.505426,
Bressanone/Brixen,,267618,46.709896,11.649764,1
Bressanone/Brixen,267618,595027,46.709896,11.649764,
Brig,,391820,46.319424,7.988095,1
Brig,391820,16040,46.319424,7.988095,
Brno hl.n.,,64358,49.19054,16.612774,1
Brno hl.n.,64358,472201,49.19054,16.612774,
Bruchsal,,35034,49.124924,8.590347,1
Bruchsal,35034,594835,49.125088,8.590113,
Bruck/Mur,,85656,47.41383,15.279433,1
Bruck/Mur,85656,95250,47.41383,15.279433,
Brugg AG,,658811,47.48086,8.208845,1
Brugg AG,658811,646658,47.48086,8.208845,
Bruxelles Midi,,652871,50.835377,4.335694,1
Bruxelles Midi,652871,323138,50.835377,4.335694,
Bruxelles-Nord,,445814,50.860237,4.361454,1
Bruxelles-Nord,445814,142245,50.860237,4.361454,
Buchloe,,228928,48.033722,10.716219,1
Buchloe,228928,345786,48.03355,10.716389,
Buchloe,228928,399426,48.033585,10.716273,
Budapest-Kelenföld,,113376,47.464355,19.020456,1
Budapest-Kelenföld,113376,126176,47.464355,19.020456,
Budapest-Keleti,,517590,47.50038,19.085072,1
Budapest-Keleti,517590,350949,47.50038,19.085072,
Budapest-Nyugati,,71963,47.510708,19.057467,1
Budapest-Nyugati,71963,156978,47.510708,19.057467,
Bydgoszcz Glowna,,40832,53.135113,17.991636,1
Bydgoszcz Glowna,40832,123839,53.135113,17.991636,
Böblingen,,454271,48.687847,9.004533,1
Böblingen,454271,197882,48.687847,9.004641,
Böblingen,454271,409056,48.688004,9.00438,
Büchen,529429,54661,53.474968,10.623285,
"Büchen, Büchen",,529429,53.47661,10.620907,1
Bünde(Westf),66047,232693,52.202274,8.574509,
Bünde(Westf),66047,62128,52.20239,8.574419,
"Bünde, Bahnhof / ZOB",,66047,52.20191,8.575767,1
Bützow,652503,311684,53.83715,11.998132,
Bützow,652503,367724,53.83709,11.998258,
Bützow,652503,485923,53.83704,11.997872,
"Bützow, Bahnhof",,652503,53.837006,11.997513,1
Celje,,233703,46.228558,15.26798,1
Celje,233703,89498,46.228558,15.26798,
Celle,,196430,52.620457,10.062468,1
Celle,196430,111304,52.620457,10.062468,
Ceska Trebova,,651999,49.897324,16.446808,1
Ceska Trebova,651999,224858,49.897324,16.446808,
Chemnitz Hbf,196710,112841,50.84004,12.930799,
Chemnitz Hbf,196710,179313,50.84002,12.930907,
Chemnitz Hbf,196710,28096,50.83933,12.931177,
Chemnitz Hbf,196710,300970,50.839336,12.931096,
"Chemnitz, Hauptbahnhof",,196710,50.83963,12.930692,1
Chur,,663221,46.853085,9.528938,1
Chur,663221,243698,46.853085,9.528938,
Coburg,,241935,50.262924,10.957326,1
Coburg,241935,102118,50.263447,10.957201,
Coburg,241935,260517,50.26347,10.957452,
Coswig Bahnhof,,5199,51.123024,13.579374,1
Coswig(b Dresden),5199,203508,51.12281,13.579414,
Cottbus Hbf,57245,136587,51.75054,14.323346,
Cottbus Hbf,57245,283950,51.751488,14.323561,
"Cottbus, Hauptbahnhof",,57245,51.750984,14.324464,1
Crailsheim,588049,157646,49.137604,10.064814,
Crailsheim,588049,187336,49.13768,10.06459,
Crailsheim Bahnhof,,588049,49.137913,10.06432,1
Czechowice-Dziedzice,,578530,49.915104,19.00465,1
Czechowice-Dziedzice,578530,559949,49.915104,19.00465,
D-Flughafen Bf,,345198,51.292088,6.786979,1
Dagebüll Kirche,,381237,54.73058,8.729632,1
Dagebüll Kirche,381237,488152,54.73028,8.729485,
Dagebüll Mole,,247897,54.73011,8.690239,1
Dagebüll Mole,247897,417248,54.729908,8.690989,
Darmstadt Hauptbahnhof,,490425,49.871937,8.631143,1
Darmstadt Hbf,490425,255701,49.873035,8.629159,
Debica,,375657,50.054417,21.405565,1
Debica,375657,140748,50.054417,21.405565,
Decin hl.n.,,650104,50.773193,14.200972,1
Decin hl.n.,650104,210573,50.773415,14.201247,
Deezbüll,,384814,54.77697,8.818274,1
Deezbüll,384814,658994,54.77697,8.818274,
Delmenhorst,,321725,53.05278,8.629879,1
Delmenhorst,321725,396635,53.05279,8.629758,
Dessau Hbf,,539819,51.839867,12.23494,1
Dessau Hbf,539819,381704,51.839867,12.234945,
Deventer,,149275,52.257435,6.160506,1
Deventer,149275,433238,52.257435,6.160506,
Diepholz,,585328,52.6046,8.380249,1
Diepholz,585328,114289,52.6046,8.380267,
Diepholz,585328,591742,52.604637,8.38013,
Dillenburg,81778,584309,50.734905,8.294586,
Dillenburg Bahnhof,,81778,50.734905,8.294586,1
Doberlug-Kirchhain,32928,1545,51.620533,13.564268,
Doberlug-Kirchhain,32928,187962,51.62053,13.564161,
"Doberlug-Kirchhain, Bahnhof",,32928,51.62061,13.564187,1
Dobova,,398858,45.89839,15.655178,1
Dobova,398858,618176,45.89839,15.655178,
Dobova(Gr),,89014,45.890633,15.680238,1
Dobova(Gr),89014,494480,45.890633,15.680238,
Donauwörth,,58242,48.714024,10.771447,1
Donauwörth,58242,65447,48.71402,10.771564,
Donauwörth,58242,83348,48.71413,10.771654,
Dorfgastein,,501408,47.23867,13.103062,1
Dorfgastein,501408,19363,47.23867,13.103062,
Dornbirn,,104531,47.41769,9.738808,1
Dornbirn,104531,389472,47.41769,9.738808,
Dortmund Hbf,,350861,51.51689,7.459592,1
Dortmund Hbf,350861,146681,51.518333,7.458604,
Dortmund Hbf,350861,293264,51.5176,7.458793,
Dortmund Hbf,350861,306900,51.517895,7.45929,
Dortmund Hbf,350861,348956,51.51821,7.45864,
Dortmund Hbf,350861,365073,51.518063,7.458685,
Dortmund Hbf,350861,43014,51.517723,7.458775,
Dortmund Hbf,350861,481881,51.51796,7.458703,
Dortmund Hbf,350861,575357,51.517883,7.458721,
Dortmund Scharnhorst Bf,,221802,51.538486,7.53771,1
Dortmund-Scharnhorst,221802,247045,51.538372,7.536564,
Dresden Bahnhof Mitte,,647326,51.05564,13.723392,1
Dresden Bahnhof Neustadt,,545357,51.065426,13.740882,1
Dresden Hauptbahnhof,,194239,51.03993,13.732932,1
Dresden Hbf,194239,131946,51.040684,13.731863,
Dresden Hbf,194239,187931,51.039875,13.731396,
Dresden Hbf,194239,421470,51.04052,13.731962,
Dresden Hbf,194239,441579,51.04089,13.731872,
Dresden Hbf,194239,461258,51.0408,13.7318,
Dresden Hbf,194239,65184,51.040016,13.731531,
Dresden Mitte,647326,49261,51.056168,13.724109,
Dresden-Neustadt,545357,232015,51.066017,13.740352,
Dresden-Neustadt,545357,299267,51.066097,13.740235,
Dresden-Neustadt,545357,393525,51.06591,13.740541,
Dresden-Neustadt,545357,592361,51.065994,13.740424,
Duisburg Hbf,,455097,51.430454,6.774528,1
Duisburg Hbf,455097,236216,51.429867,6.776882,
Duisburg Hbf,455097,241540,51.42997,6.775902,
Duisburg Hbf,455097,310867,51.43,6.775696,
Duisburg Hbf,455097,320334,51.429787,6.775903,
Duisburg Hbf,455097,510260,51.43001,6.775624,
Duisburg Hbf,455097,666616,51.429836,6.777088,
Döbeln Hbf,87880,41444,51.12688,13.095119,
Döbeln Hbf,87880,93276,51.126568,13.094988,
"Döbeln, Hauptbahnhof",,87880,51.126686,13.09564,1
Düren,,543944,50.809517,6.482451,1
Düren,543944,504193,50.809517,6.482451,
Düsseldorf Flughafen,345198,25969,51.291794,6.78679,
Düsseldorf Flughafen,345198,357818,51.291813,6.78705,
Düsseldorf Hbf,,304040,51.220253,6.792997,1
Düsseldorf Hbf,304040,230838,51.219597,6.794866,
Düsseldorf Hbf,304040,363175,51.219555,6.794947,
Düsseldorf Hbf,304040,380007,51.219673,6.794704,
Düsseldorf Hbf,304040,403314,51.219444,6.795171,
Düsseldorf Hbf,304040,573573,51.21948,6.795099,
Düsseldorf Hbf,304040,666362,51.219364,6.795333,
Düsseldorf Hbf,304040,80629,51.219963,6.794319,
Eberswalde Hbf,328838,179904,52.83376,13.796866,
Eberswalde Hbf,328838,472430,52.833805,13.796755,
"Eberswalde, Hauptbahnhof",,328838,52.833683,13.79695,1
Eisenach,,308585,50.976894,10.331974,1
Eisenach Hbf,308585,479933,50.97692,10.331986,
Ellwangen,380782,265315,48.96439,10.129664,
Ellwangen Bahnhof,,380782,48.964535,10.129762,1
Elmshorn,583972,215724,53.754017,9.659404,
"Elmshorn, Elmshorn",,583972,53.75464,9.659292,1
Elsterwerda,507444,491151,51.459404,13.516305,
Elsterwerda,507444,541087,51.460335,13.516754,
Elsterwerda,507444,662795,51.45942,13.516226,
"Elsterwerda, Bahnhof",,507444,51.459805,13.516412,1
Emden Außenhafen,237347,184155,53.344498,7.186394,
Emden Hbf,157985,307853,53.36936,7.195267,
Emden Hbf,157985,531867,53.36933,7.195423,
Emden Hbf,157985,543047,53.369442,7.194968,
Emden Hbf,157985,584991,53.369396,7.195112,
Emden(Ostfriesl) Außenhafen,,237347,53.344498,7.186394,1
Emden(Ostfriesl) Hbf,,157985,53.36925,7.195502,1
Emmerich,143066,198711,51.834175,6.25648,
Emmerich Bahnhof,,143066,51.8338,6.254951,1
Emmerich(Gr),,201771,51.901196,6.137652,1
Emmerich(Gr),201771,93990,51.901196,6.137652,
Engen,197969,434684,47.8561,8.772597,
Engen Bahnhof,,197969,47.856007,8.772561,1
Erfurt Hbf,,104130,50.97227,11.038131,1
Erfurt Hbf,104130,472736,50.972355,11.037993,
Ergenzingen,94842,179624,48.489243,8.809751,
Ergenzingen Bahnhof,,94842,48.489594,8.809949,1
Erkelenz,,473521,51.076595,6.321634,1
Erkelenz,473521,30161,51.076595,6.321634,
Erlangen,,172650,49.595825,11.00164,1
Erlangen,172650,212618,49.596157,11.001488,
Erlangen,172650,84588,49.596188,11.001685,
Essen Hauptbahnhof,,471304,51.449734,7.012213,1
Essen Hbf,471304,195426,51.451363,7.014001,
Essen Hbf,471304,242139,51.45159,7.013956,
Essen Hbf,471304,304193,51.451355,7.014793,
Essen Hbf,471304,7701,51.451736,7.013938,
Essen Hbf,471304,84061,51.45151,7.013974,
Esslingen (N),,375333,48.73854,9.300582,1
Esslingen(Neckar),375333,382662,48.738544,9.300522,
Eutingen im Gäu,68260,582921,48.479736,8.782361,
Eutingen im Gäu Bahnhof,,68260,48.47957,8.781643,1
Feldkirch,,244148,47.24098,9.604102,1
Feldkirch,244148,20008,47.24098,9.604102,
Finnentrop,196846,409482,51.1729,7.96467,
Finnentrop Bf,,196846,51.17316,7.964598,1
Flensburg,,554820,54.774048,9.436687,1
Flensburg,554820,426856,54.773857,9.436511,
Flensburg [Grenze],,367671,54.814842,9.36324,1
Flensburg(Gr),367671,332741,54.814842,9.36324,
Flughafen BER,651663,387572,52.36416,13.509246,
Flughafen BER,651663,496456,52.36424,13.509191,
Flughafen BER - Terminal 1-2,,651663,52.364605,13.509874,1
Flughafen BER - Terminal 5,,497385,52.390907,13.513046,1
Forbach(F),,73974,49.189217,6.900258,1
Forbach(F),73974,5125,49.189217,6.900258,
Forbach(fr),,288910,49.21409,6.944314,1
Forbach(fr),288910,538395,49.21409,6.944314,
Fortezza/Franzensfeste,,50578,46.78872,11.610083,1
Fortezza/Franzensfeste,50578,365523,46.78872,11.610083,
Frankfurt (Main) Hauptbahnhof,,114406,50.107155,8.663759,1
Frankfurt (Main) Niederrad Bahnhof,,595585,50.08078,8.63709,1
Frankfurt (Main) Südbahnhof,,425916,50.099327,8.686442,1
Frankfurt (Main) Westbahnhof,,241858,50.119446,8.639455,1
"Frankfurt (Oder), Bahnhof",,645165,52.336708,14.547147,1
Frankfurt(M) Flughafen Fernbf,,23310,50.053165,8.570185,1
Frankfurt(M) Flughafen Fernbf,23310,118753,50.053165,8.570185,
Frankfurt(M) Flughafen Regionalbf,,357707,50.05122,8.571251,1
Frankfurt(M) Flughafen Regionalbf,357707,150679,50.05122,8.571251,
Frankfurt(Main)Hbf,114406,101098,50.10636,8.662772,
Frankfurt(Main)Hbf,114406,133250,50.106003,8.663306,
Frankfurt(Main)Hbf,114406,151641,50.10696,8.662195,
Frankfurt(Main)Hbf,114406,153732,50.10647,8.662687,
Frankfurt(Main)Hbf,114406,239990,50.10681,8.66235,
Frankfurt(Main)Hbf,114406,290186,50.1062,8.663011,
Frankfurt(Main)Hbf,114406,332590,50.106262,8.662941,
Frankfurt(Main)Hbf,114406,344191,50.107033,8.662124,
Frankfurt(Main)Hbf,114406,35817,50.1069,8.662237,
Frankfurt(Main)Hbf,114406,373298,50.106686,8.662504,
Frankfurt(Main)Hbf,114406,447236,50.106102,8.663151,
Frankfurt(Main)Hbf,114406,475930,50.106148,8.663123,
Frankfurt(Main)Hbf,114406,477493,50.10577,8.663461,
Frankfurt(Main)Hbf,114406,494779,50.10587,8.663474,
Frankfurt(Main)Hbf,114406,532368,50.107098,8.662068,
Frankfurt(Main)Hbf,114406,542037,50.10652,8.662645,
Frankfurt(Main)Hbf,114406,561715,50.104183,8.659307,
Frankfurt(Main)Hbf,114406,563393,50.106754,8.662378,
Frankfurt(Main)Hbf,114406,566722,50.10662,8.662561,
Frankfurt(Main)Hbf,114406,622790,50.1063,8.662814,
Frankfurt(Main)Süd,425916,123731,50.099003,8.686179,
Frankfurt(Main)Süd,425916,386995,50.099064,8.686108,
Frankfurt(Main)Süd,425916,622084,50.099205,8.685283,
Frankfurt(Main)West,241858,538751,50.11939,8.638952,
Frankfurt(Oder),645165,191654,52.336605,14.546146,
Frankfurt(Oder),645165,265670,52.336643,14.54624,
Frankfurt(Oder),645165,269598,52.336563,14.545988,
Frankfurt(Oder)(Gr),,471921,52.321175,14.576403,1
Frankfurt(Oder)(Gr),471921,146454,52.321175,14.576403,
Frankfurt-Niederrad,595585,495900,50.081085,8.637102,
Fredericia st,,389147,55.56809,9.738813,1
Fredericia st,389147,145429,55.56809,9.738813,
Freiberg(Sachs),405720,152641,50.908634,13.344572,
Freiberg(Sachs),405720,614024,50.908737,13.344644,
"Freiberg, Bahnhof",,405720,50.90936,13.342219,1
Freiburg Hauptbahnhof,,98502,47.996616,7.840442,1
Freiburg(Breisgau) Hbf,98502,338523,47.997765,7.841295,
Freiburg(Breisgau) Hbf,98502,387382,47.997704,7.841619,
Freiburg(Breisgau) Hbf,98502,580360,47.99773,7.841511,
Freilassing,,653000,47.836914,12.977197,1
Freilassing,653000,424608,47.83721,12.976658,
Freilassing,653000,660917,47.83703,12.976586,
Freilassing,653000,67227,47.836205,12.977997,
Freilassing Bahnhof,653000,655945,47.83622,12.977907,
Frick,,109743,47.507164,8.01268,1
Frick,109743,130255,47.507164,8.01268,
Friedberg (Hessen) Bahnhof,,48470,50.332745,8.761246,1
Friedberg(Hess),48470,620505,50.33204,8.760561,
Friedrichsh. Stadtbahnhof,,253738,47.653057,9.473426,1
Friedrichshafen Stadt,253738,161641,47.653084,9.473498,
Fulda,628656,578651,50.555016,9.683904,
Fulda Bahnhof,,628656,50.55492,9.683761,1
Fürth (Bay) Hbf,,153039,49.469707,10.989989,1
Fürth Hauptbahnhof,153039,254394,49.470367,10.991229,
Fürth(Bay)Hbf,153039,148100,49.469707,10.989988,
Fürth(Bay)Hbf,153039,480469,49.469738,10.990079,
Garmisch-Partenkirchen,,473910,47.491455,11.097014,1
Garmisch-Partenkirchen,473910,128712,47.49119,11.098515,
Garmisch-Partenkirchen,473910,300369,47.49107,11.098209,
Garmisch-Partenkirchen,473910,493319,47.491116,11.098326,
Gdansk Glowny,,622574,54.35552,18.643803,1
Gdansk Glowny,622574,615212,54.35552,18.643803,
Gdansk Oliwa,,102323,54.409893,18.571741,1
Gdansk Oliwa,102323,19559,54.409893,18.571741,
Gdansk Wrzeszcz,,501388,54.38186,18.605434,1
Gdansk Wrzeszcz,501388,335880,54.38186,18.605434,
Gdynia Glowna,,282307,54.52084,18.529556,1
Gdynia Glowna,282307,421527,54.52084,18.529556,
Geilenkirchen,,185489,50.96104,6.124518,1
Geilenkirchen,185489,540699,50.96104,6.124518,
Gelbensande,,329019,54.199074,12.30594,1
Gelbensande,329019,670723,54.198696,12.304809,
Gelsenkirchen Hbf,,510322,51.504925,7.102206,1
Gelsenkirchen Hbf,510322,120270,51.50487,7.103141,
Gelsenkirchen Hbf,510322,170999,51.504982,7.103159,
Gelsenkirchen Hbf,510322,313246,51.5049,7.102455,
Gelsenkirchen Hbf,510322,552721,51.504814,7.103177,
Gelsenkirchen Hbf,510322,591241,51.50504,7.103051,
Gera Hbf,,238522,50.88342,12.077098,1
Gera Hbf,238522,336710,50.883423,12.077092,
Gießen,337181,553672,50.579884,8.663799,
Gießen Bahnhof,,337181,50.579884,8.663799,1
Gliwice,,459047,50.301105,18.677158,1
Gliwice,459047,639879,50.301105,18.677158,
Glogow,,542168,51.668957,16.079712,1
Glogow,542168,184803,51.668957,16.079712,
Gniezno,,597818,52.52965,17.602184,1
Gniezno,597818,88137,52.52965,17.602184,
Golling-Abtenau,,225107,47.600574,13.164086,1
Golling-Abtenau,225107,54485,47.600574,13.164086,
Gotha,,175758,50.93905,10.712328,1
Gotha,175758,456765,50.93907,10.712568,
Graz Hbf,,380629,47.072296,15.416437,1
Graz Hbf,380629,250053,47.072296,15.416437,
Greifswald,,95393,54.092926,13.370264,1
Greifswald,95393,16018,54.092854,13.370516,
Greifswald,95393,379503,54.092926,13.370264,
Greifswald,95393,660831,54.092815,13.370453,
Györ,,256675,47.68198,17.63479,1
Györ,256675,390609,47.68198,17.63479,
Gäufelden,,292074,48.559715,8.850103,1
Gäufelden,292074,131984,48.559704,8.850157,
Gäufelden,292074,34682,48.559734,8.85004,
Göttingen,,38038,51.53672,9.925875,1
Göttingen,38038,262500,51.536682,9.926424,
Göttingen,38038,449792,51.53667,9.925681,
Göttingen,38038,515609,51.53674,9.925647,
Göttingen,38038,646413,51.53698,9.925599,
Göttingen,38038,654576,51.536865,9.92561,
Günzburg,,274381,48.460564,10.27926,1
Günzburg,274381,607236,48.46052,10.27926,
Gütersloh Hbf,573930,117825,51.906822,8.384893,
Gütersloh Hbf,573930,122729,51.90686,8.38483,
"Gütersloh, Hbf/ZOB",,573930,51.90747,8.383411,1
HER Wanne-Eickel Hbf,,336772,51.53249,7.165502,1
Hagen Hbf,,536315,51.361916,7.462413,1
Hagen Hbf,536315,506573,51.362747,7.460249,
Haiger,503085,608386,50.74111,8.221986,
Haiger Bahnhof,,503085,50.74111,8.221986,1
Halle(Saale)Hbf,,117275,51.477512,11.987085,1
Halle(Saale)Hbf,117275,265490,51.47751,11.987085,
Hallein,,104386,47.68517,13.099434,1
Hallein,104386,448089,47.68517,13.099434,
Hamburg Dammtor,201351,585659,53.560757,9.989569,
Hamburg Hbf,582836,17617,53.552303,10.006334,
Hamburg Hbf,582836,189861,53.55271,10.007026,
Hamburg Hbf,582836,235130,53.552517,10.007349,
Hamburg Hbf,582836,280465,53.552322,10.006657,
Hamburg Hbf,582836,524554,53.5516,10.006927,
Hamburg Hbf,582836,539759,53.553005,10.006307,
"Hamburg, Bergedorf",,481619,53.48985,10.205962,1
"Hamburg, Hamburg Dammtor",,201351,53.560783,9.989403,1
"Hamburg, Hamburg Hbf",,582836,53.55275,10.007941,1
"Hamburg, Hamburg-Altona",,264886,53.55325,9.935405,1
"Hamburg, Hamburg-Harburg",,345029,53.456375,9.990947,1
Hamburg-Altona,264886,170260,53.552773,9.9349,
Hamburg-Altona,264886,286000,53.552864,9.93534,
Hamburg-Altona,264886,558362,53.552765,9.93516,
Hamburg-Altona,264886,565418,53.55281,9.934828,
Hamburg-Altona,264886,608061,53.552784,9.93508,
Hamburg-Bergedorf,481619,487943,53.48963,10.205985,
Hamburg-Harburg,345029,240098,53.45628,9.992212,
Hamburg-Harburg,345029,362424,53.45625,9.991988,
Hamburg-Harburg,345029,515515,53.455902,9.991704,
Hamburg-Harburg,345029,58945,53.45619,9.991359,
"Hamm (Westf), Hauptbahnhof",,573809,51.678547,7.809172,1
Hamm(Westf)Hbf,573809,194292,51.678474,7.807276,
Hamm(Westf)Hbf,573809,295979,51.678513,7.807617,
Hamm(Westf)Hbf,573809,311889,51.678616,7.808291,
Hamm(Westf)Hbf,573809,420272,51.678078,7.807821,
Hamm(Westf)Hbf,573809,439149,51.67856,7.807896,
Hamm(Westf)Hbf,573809,82927,51.6785,7.807492,
Hanau Hauptbahnhof,,245420,50.121346,8.928415,1
Hanau Hbf,245420,554717,50.121346,8.928415,
Hannover Hauptbahnhof,,86420,52.37649,9.74107,1
Hannover Hbf,86420,240187,52.3777,9.741798,
Hannover Hbf,86420,313609,52.376762,9.741021,
Hannover Hbf,86420,327206,52.37734,9.741547,
Hannover Hbf,86420,363614,52.377613,9.741834,
Hannover Hbf,86420,375834,52.37746,9.74169,
Hannover Hbf,86420,383087,52.37751,9.741717,
Hannover Hbf,86420,425811,52.377087,9.741169,
Hannover Hbf,86420,452564,52.37726,9.74143,
Hannover Hbf,86420,628767,52.376934,9.740981,
Hannover Hbf,86420,8603,52.37715,9.741295,
Hannover Messe / Laatzen,,525363,52.317486,9.792149,1
Hannover Messe/Laatzen,525363,27384,52.316975,9.792607,
Hannover Messe/Laatzen,525363,28154,52.317005,9.792903,
Hannover Messe/Laatzen,525363,349381,52.3169,9.792863,
Hannover-Wülfel,,232715,52.32499,9.7885,1
Hannover-Wülfel,232715,465660,52.32499,9.7885,
Hegyeshalom,,123386,47.913975,17.145296,1
Hegyeshalom,123386,282773,47.913975,17.145296,
Hegyeshalom(Gr),,17541,47.93826,17.095844,1
Hegyeshalom(Gr),17541,74682,47.93826,17.095844,
Heide(Holst),,574808,54.192932,9.101242,1
Heide(Holst),574808,172490,54.19306,9.101122,
Heide(Holst),574808,246593,54.19317,9.100833,
Heidelberg Hbf,578377,111972,49.40382,8.674716,
Heidelberg Hbf,578377,336161,49.403625,8.674905,
Heidelberg Hbf,578377,48713,49.40351,8.674815,
Heidelberg Hbf,578377,654746,49.403843,8.675138,
"Heidelberg, Hauptbahnhof",,578377,49.404316,8.676243,1
Heilbronn Hauptbahnhof,,43773,49.142925,9.207974,1
Heilbronn Hbf,43773,623849,49.14302,9.207561,
Helmstedt,361351,167118,52.22181,11.010192,
Helmstedt,361351,360520,52.22185,11.010084,
"Helmstedt, Bahnhof",,361351,52.22207,11.010093,1
Hengelo,,280498,52.261852,6.793726,1
Hengelo,280498,644921,52.261852,6.793726,
Herborn Bahnhof,,382563,50.68468,8.3083,1
Herborn(Dillkr),382563,511215,50.68458,8.308274,
Herford,664375,252454,52.119453,8.663415,
Herford,664375,51636,52.119358,8.663667,
Herford,664375,670026,52.11961,8.663643,
"Herford, Bahnhof",,664375,52.119244,8.664628,1
Hermsdorf-Klosterlausnitz,,306505,50.90385,11.858619,1
Hermsdorf-Klosterlausnitz,306505,182761,50.903778,11.858626,
Herrenberg,,284057,48.59399,8.863378,1
Herrenberg,284057,302997,48.593933,8.862895,
Herrenberg,284057,375692,48.594112,8.862716,
Herzogenrath,,335338,50.870914,6.094486,1
Herzogenrath,335338,397330,50.870914,6.094486,
Hildesheim Gbf,,168495,52.157387,9.942379,1
Hildesheim Gbf,168495,592928,52.157387,9.942379,
Hildesheim Hauptbahnhof,,502549,52.159668,9.952588,1
Hildesheim Hbf,502549,466527,52.160275,9.952633,
Hildesheim Hbf,502549,583907,52.160625,9.953497,
Hildesheim Hbf,502549,85543,52.160027,9.952812,
Hilversum,,344969,52.22667,5.181399,1
Hilversum,344969,232095,52.22667,5.181399,
Hockenheim,505355,225593,49.317413,8.537385,
"Hockenheim, Bahnhof",,505355,49.317432,8.537588,1
Hohenems,,605784,47.364708,9.681001,1
Hohenems,605784,557345,47.364708,9.681001,
Homburg (Saar) Hbf,,12765,49.32808,7.337035,1
Homburg(Saar)Hbf,12765,176425,49.327637,7.336362,
Homburg(Saar)Hbf,12765,628059,49.327587,7.33657,
Horb,636044,243316,48.441597,8.688775,
Horb,636044,542010,48.44146,8.688829,
Horb Bahnhof/ZOB,,636044,48.441853,8.688892,1
Hude,587526,568831,53.10929,8.460912,
Hude,587526,58302,53.10924,8.460892,
Hude(Oldb),,587526,53.10937,8.460953,1
Husum,,282420,54.472034,9.056426,1
Husum,282420,280874,54.471985,9.05636,
Husum,282420,471655,54.471897,9.056276,
Hünfeld,464547,421064,50.673237,9.762918,
Hünfeld Bahnhof,,464547,50.673237,9.762918,1
Imst-Pitztal,,453451,47.219074,10.76167,1
Imst-Pitztal,453451,165830,47.219074,10.76167,
Ingolstadt Hbf,,396026,48.74455,11.437341,1
Ingolstadt Hbf,396026,323737,48.744904,11.436021,
Ingolstadt Hbf,396026,462933,48.745197,11.436111,
"Ingolstadt, Hauptbahnhof",396026,399373,48.745193,11.435967,
Innsbruck Hauptbahnhof,,131808,47.263332,11.40051,1
Innsbruck Hbf,131808,257507,47.26333,11.40051,
Inowroclaw,,158094,52.804947,18.24406,1
Inowroclaw,158094,448878,52.804947,18.24406,
Interlaken Ost,,490257,46.6905,7.869,1
Interlaken Ost,490257,659090,46.6905,7.869,
Interlaken West,,444777,46.68295,7.851366,1
Interlaken West,444777,16610,46.68295,7.851366,
"Iserl., Letmathe Bf",,300475,51.36308,7.618666,1
Itzehoe,,332850,53.92408,9.510151,1
Itzehoe,332850,336054,53.924175,9.510147,
Itzehoe,332850,406475,53.924114,9.510069,
Jaroslaw,,566119,50.01067,22.677896,1
Jaroslaw,566119,528424,50.01067,22.677896,
Jena Paradies,,340563,50.924854,11.587468,1
Jena Paradies,340563,516794,50.924854,11.587461,
Jena West,,628523,50.923286,11.57785,1
Jena West,628523,492353,50.923286,11.577848,
Jena-Göschwitz,,5898,50.8838,11.593217,1
Jena-Göschwitz,5898,80377,50.88394,11.593537,
Jenbach,,353013,47.388447,11.778454,1
Jenbach,353013,36670,47.388447,11.778454,
Jesenice(Gr),,123943,46.48141,14.020333,1
Jesenice(Gr),123943,246994,46.48141,14.020333,
Jesenice(SL),,393069,46.436325,14.054913,1
Jesenice(SL),393069,47020,46.436325,14.054913,
Kaiserslautern Hbf,467338,36226,49.435856,7.768559,
Kaiserslautern Hbf,467338,461848,49.435905,7.768532,
"Kaiserslautern, Hbf",,467338,49.436275,7.768262,1
Kapfenberg,,23353,47.44512,15.292088,1
Kapfenberg,23353,549887,47.44512,15.292088,
Karlsruhe Hauptbahnhof,,467850,48.993347,8.401036,1
Karlsruhe Hbf,467850,206270,48.993515,8.402181,
Karlsruhe Hbf,467850,232812,48.993732,8.401071,
Karlsruhe Hbf,467850,247370,48.99321,8.401458,
Karlsruhe Hbf,467850,280849,48.993675,8.401116,
Karlsruhe Hbf,467850,365741,48.993355,8.401269,
Karlsruhe Hbf,467850,375167,48.99385,8.401009,
Karlsruhe Hbf,467850,396600,48.993557,8.401179,
Karlsruhe Hbf,467850,428778,48.99302,8.401575,
Karlsruhe Hbf,467850,45311,48.99332,8.401422,
Karlsruhe Hbf,467850,461658,48.99313,8.401503,
Karlsruhe Hbf,467850,614648,48.993473,8.401179,
Karlsruhe-Durlach,,515969,49.00225,8.462759,1
Karlsruhe-Durlach,515969,107950,49.00207,8.462597,
Karlsruhe-Durlach,515969,154172,49.002155,8.462328,
Karlsruhe-Durlach,515969,161625,49.002213,8.463046,
Karlsruhe-Durlach,515969,523641,49.002167,8.462489,
Kassel Bahnhof Wilhelmshöhe,,655200,51.31313,9.44705,1
Kassel Hauptbahnhof,,102524,51.31809,9.490313,1
Kassel Hbf,102524,636240,51.31826,9.489501,
Kassel-Wilhelmshöhe,655200,298498,51.312435,9.448181,
Katowice,,516963,50.257515,19.017164,1
Katowice,516963,413655,50.257515,19.017164,
Kedzierzyn Kozle,,131647,50.34436,18.204765,1
Kedzierzyn Kozle,131647,25467,50.34436,18.204765,
Kehl(Gr),,339794,48.575645,7.801118,1
Kehl(Gr),339794,522582,48.575645,7.801118,
Keitum,,371431,54.888996,8.368841,1
Keitum,371431,39591,54.888973,8.368772,
Kiel Hbf,,316839,54.314205,10.131429,1
Kiel Hbf,316839,196690,54.31442,10.131609,
Klagenfurt Hbf,,424920,46.615585,14.313569,1
Klagenfurt Hbf,424920,56778,46.615585,14.313569,
Koblenz Hauptbahnhof,,128510,50.350925,7.588339,1
Koblenz Hbf,128510,305517,50.35093,7.588345,
Koebenhavn H,,486096,55.67272,12.564617,1
Koebenhavn H,486096,553801,55.67272,12.564617,
Kolding st,,413441,55.49084,9.481528,1
Kolding st,413441,486535,55.49084,9.481528,
Kolin(CZ),,450759,50.025436,15.214279,1
Kolin(CZ),450759,504523,50.025436,15.214279,
Konin,,600795,52.231396,18.253336,1
Konin,600795,358863,52.231396,18.253336,
Konstanz,543754,301292,47.658752,9.177312,
Konstanz Bahnhof,,543754,47.658794,9.17727,1
Krakow Glowny,,24468,50.067196,19.947426,1
Krakow Glowny,24468,120046,50.067196,19.947426,
Krakow Plaszow,,50458,50.03509,19.974894,1
Krakow Plaszow,50458,294030,50.03509,19.974894,
Kranj,,637479,46.23901,14.348167,1
Kranj,637479,534590,46.23901,14.348167,
Krefeld Hauptbahnhof,,514387,51.325623,6.568194,1
Krefeld Hbf,514387,295629,51.32541,6.569613,
Krefeld Hbf,514387,664690,51.325672,6.569398,
Kreuztal,269065,278372,50.955246,7.992805,
Kreuztal,269065,42353,50.95596,7.991961,
Kreuztal Bf,,269065,50.95591,7.992113,1
Kronach,,572432,50.23961,11.320111,1
Kronach,572432,179294,50.239956,11.320291,
Kronach,572432,292830,50.239956,11.320165,
Krsko,,44371,45.95624,15.493454,1
Krsko,44371,595860,45.95624,15.493454,
Krumpendorf/Wörthersee,,341878,46.62633,14.221512,1
Krumpendorf/Wörthersee,341878,556686,46.62633,14.221512,
Kufstein,,114281,47.58308,12.16555,1
Kufstein,114281,580369,47.58308,12.16555,
Kutno,,366775,52.226963,19.348616,1
Kutno,366775,10717,52.226963,19.348616,
Kuty,,226510,48.661892,17.047695,1
Kuty,226510,342020,48.661892,17.047695,
Kuty(Gr),,235035,48.71108,17.000406,1
Kuty(Gr),235035,99858,48.71108,17.000406,
Köln Deutz Messe/Deutz Bf,,508921,50.940876,6.974996,1
Köln Ehrenfeld Bf Ehrenfeld,,20563,50.951527,6.91727,1
Köln Flughafen Köln/Bonn Flughafen Bf,,657515,50.878902,7.119292,1
Köln Hbf,,373200,50.94303,6.958727,1
Köln Hbf,373200,155113,50.943333,6.958557,
Köln Hbf,373200,226781,50.943237,6.958332,
Köln Hbf,373200,227759,50.9434,6.958719,
Köln Hbf,373200,310024,50.943195,6.95826,
Köln Hbf,373200,532405,50.94303,6.958729,
Köln Hbf,373200,535974,50.943497,6.958943,
Köln Hbf,373200,578121,50.943134,6.958081,
Köln Hbf,373200,73552,50.943302,6.958485,
Köln Messe/Deutz,508921,365940,50.940872,6.975001,
Köln Messe/Deutz,508921,605553,50.940876,6.975921,
Köln Messe/Deutz,508921,620680,50.940674,6.975858,
Köln Messe/Deutz Gl.11-12,508921,272582,50.9416,6.973963,
Köln Messe/Deutz Gl.11-12,508921,460591,50.941566,6.973864,
Köln Messe/Deutz Gl.11-12,508921,73502,50.941723,6.974067,
Köln West,44987,407257,50.943665,6.934389,
Köln West Bf,,44987,50.94322,6.933718,1
Köln-Ehrenfeld,20563,232025,50.951653,6.917648,
Köln-Ehrenfeld,20563,300874,50.951748,6.917621,
Köln/Bonn Flughafen,657515,120290,50.879063,7.11958,
Köln/Bonn Flughafen,657515,429185,50.879154,7.119149,
Königs Wusterhausen,546737,196661,52.29666,13.63135,
Köthen,,254980,51.751934,11.989356,1
Köthen,254980,598418,51.75193,11.989358,
Lahr (Schwarzwald) Bahnhof,,501600,48.34044,7.835573,1
Lahr(Schwarzw),501600,165591,48.340435,7.834734,
Lancut,,319378,50.08143,22.227507,1
Lancut,319378,158957,50.08143,22.227507,
Landeck-Zams,,368432,47.148243,10.578392,1
Landeck-Zams,368432,560604,47.148243,10.578392,
Landquart,,508578,46.96744,9.554045,1
Landquart,508578,435219,46.96744,9.554045,
Landstuhl,520264,590500,49.416283,7.56624,
"Landstuhl, Bahnhof",,520264,49.416332,7.566159,1
Langen am Arlberg,,608902,47.13172,10.120375,1
Langen am Arlberg,608902,385053,47.13172,10.120375,
Langenhagen Bahnhof Mitte,,206536,52.44028,9.726024,1
Langenhagen Mitte,206536,57075,52.440178,9.725413,
Langenhagen Mitte,206536,576951,52.440155,9.725539,
Leer(Ostfriesl),,14603,53.23141,7.465229,1
Leer(Ostfriesl),14603,241479,53.23138,7.465076,
Leer(Ostfriesl),14603,402276,53.23141,7.465242,
Leer(Ostfriesl),14603,539386,53.231438,7.46537,
Legnica,,548901,51.21385,16.168922,1
Legnica,548901,119238,51.21385,16.168922,
Leinefelde,,198767,51.38875,10.329303,1
Leinefelde,198767,497871,51.388836,10.328758,
Leipzig Hbf,,497585,51.345474,12.382064,1
Leipzig Hbf,497585,427749,51.34547,12.382064,
Leipzig Messe,,345594,51.39614,12.389283,1
Leipzig Messe,345594,582248,51.396145,12.389278,
Leipzig-Leutzsch,,241018,51.353996,12.30374,1
Leipzig-Leutzsch,241018,433345,51.354,12.303738,
Leipzig/Halle Flughafen,,135556,51.42334,12.22343,1
Leipzig/Halle Flughafen,135556,265870,51.42334,12.223426,
Lennestadt-Altenhundem,645273,130680,51.103645,8.071282,
Lennestadt-Altenhundem Bf,,645273,51.104046,8.071534,1
Lennestadt-Grevenbrück,147137,516087,51.14155,8.018138,
Lennestadt-Grevenbrück,147137,530147,51.141613,8.018227,
Lennestadt-Grevenbrück Bf,,147137,51.141815,8.017662,1
Leoben Hbf,,239596,47.386604,15.089603,1
Leoben Hbf,239596,550955,47.386604,15.089603,
Lesce-Bled,,163160,46.360416,14.157971,1
Lesce-Bled,163160,558350,46.360416,14.157971,
Letmathe,300475,358317,51.362747,7.617794,
Letmathe,300475,427482,51.36265,7.617839,
Leverkusen Mitte,446241,80304,51.032265,6.990249,
Leverkusen Wiesdorf Mitte Bf,,446241,51.03151,6.991651,1
Lichtenfels,,124990,50.146454,11.059474,1
Lichtenfels Bahnhof,124990,490602,50.146103,11.06039,
Lichtenfels Bahnhof,124990,596394,50.14574,11.05995,
Liestal,,225064,47.484375,7.731353,1
Liestal,225064,481061,47.484375,7.731353,
Liezen,,601572,47.56271,14.241886,1
Liezen,601572,50669,47.56271,14.241886,
Limburg (Lahn) Süd (ICE),,72967,50.38191,8.095532,1
Limburg Süd,72967,322379,50.3819,8.095546,
Limburg Süd,72967,498286,50.382423,8.09593,
Lindau-Reutin,,283195,47.552383,9.703287,1
Lindau-Reutin,283195,289684,47.552383,9.703292,
Lingen(Ems),397238,347077,52.519867,7.321731,
"Lingen, Bahnhof",,397238,52.519543,7.321198,1
Linz Hbf,,640536,48.29018,14.292131,1
Linz Hbf,640536,253997,48.29018,14.292131,
Lippstadt,628771,464891,51.670666,8.348161,
Lippstadt,628771,621453,51.67074,8.349113,
"Lippstadt, Bustreff Bahnhof",,628771,51.671047,8.349535,1
Liège-Guillemins,,425637,50.62436,5.566483,1
Liège-Guillemins,425637,565036,50.62436,5.566483,
Ljubljana,,494273,46.05869,14.512937,1
Ljubljana,494273,78578,46.05869,14.512937,
Lubin Gorniczy,,663527,51.39612,16.193586,1
Lubin Gorniczy,663527,88640,51.39612,16.193586,
Ludwigsburg,,607485,48.892082,9.185229,1
Ludwigsburg,607485,39644,48.892147,9.185409,
Ludwigsstadt,,275117,50.486584,11.382993,1
Ludwigsstadt Bahnhof,275117,92196,50.48694,11.383083,
Lunderskov st,,373309,55.48012,9.303791,1
Lunderskov st,373309,424688,55.48012,9.303791,
Lutherstadt Wittenberg Hbf,,45749,51.86781,12.662289,1
Lutherstadt Wittenberg Hbf,45749,131475,51.86781,12.662285,
Lübben(Spreewald),622361,328631,51.93978,13.877006,
Lübben(Spreewald),622361,401437,51.939842,13.877132,
"Lübben, Bahnhof",,622361,51.93989,13.877536,1
Lübbenau(Spreewald),570508,116273,51.862095,13.961176,
Lübbenau(Spreewald),570508,423883,51.862026,13.961095,
"Lübbenau, Bahnhof",,570508,51.862114,13.962173,1
Lübeck Hbf,,155312,53.867214,10.668884,1
Lübeck Hbf,155312,396318,53.8676,10.668868,
Lübeck Hbf,155312,431907,53.867172,10.668899,
Lüneburg,,288580,53.249958,10.419971,1
Lüneburg,288580,549405,53.249535,10.419739,
"MA-Friedrichsfeld, Bahnhof",,373394,49.44875,8.580285,1
MG Hbf /Europaplatz,,365260,51.19697,6.445394,1
MG Rheydt Hbf,,420883,51.162895,6.440256,1
Maasbüll(b Niebüll),,631954,54.754414,8.812732,1
Maasbüll(b Niebüll),631954,4911,54.754414,8.812732,
Magdeburg Hbf,,496297,52.13035,11.626888,1
Magdeburg Hbf,496297,445150,52.130512,11.626963,
Magdeburg-Neustadt,,666914,52.14884,11.641699,1
Magdeburg-Neustadt,666914,34794,52.14884,11.641703,
Mainz Hbf,286536,625710,50.001118,8.25872,
"Mainz, Hauptbahnhof",,286536,50.00145,8.258419,1
Mallnitz-Obervellach,,117493,46.981213,13.176498,1
Mallnitz-Obervellach,117493,504366,46.981213,13.176498,
Mannheim Hbf,107263,173975,49.479134,8.4699,
Mannheim Hbf,107263,277698,49.479355,8.468921,
Mannheim Hbf,107263,378290,49.4789,8.46964,
Mannheim Hbf,107263,501699,49.47923,8.470026,
Mannheim Hbf,107263,524100,49.47901,8.469757,
Mannheim Hbf,107263,654712,49.478836,8.469559,
Mannheim Hbf,107263,668566,49.479076,8.46982,
"Mannheim, Hauptbahnhof",,107263,49.479748,8.469936,1
Marburg Hauptbahnhof,,436695,50.819256,8.774007,1
Marburg(Lahn),436695,507719,50.818718,8.77401,
Marburg(Lahn),436695,64622,50.819256,8.774007,
Maribor,,255689,46.562065,15.658011,1
Maribor,255689,562688,46.562065,15.658011,
Marienhafe,387438,175639,53.51933,7.274294,
Marienhafe,387438,665856,53.51922,7.27422,
Marienhafe Bahnhof,,387438,53.519897,7.273198,1
Memmingen,,202252,47.9849,10.18648,1
"Memmingen, Bahnhof ZOB",202252,198120,47.985085,10.186419,
"Memmingen, Bahnhof ZOB",202252,642557,47.984997,10.186392,
Meppen,540461,409802,52.696022,7.298015,
"Meppen, Bahnhof",,540461,52.695477,7.298093,1
Miechow,,60555,50.35442,20.011295,1
Miechow,60555,18147,50.35442,20.011295,
Minden(Westf),579688,143774,52.29053,8.934814,
Minden(Westf),579688,486714,52.29067,8.934222,
Minden(Westf),579688,600015,52.290478,8.935057,
"Minden, Bahnhof",,579688,52.29013,8.934177,1
Mittenwald,,559869,47.44003,11.265709,1
Mittenwald,559869,360200,47.440243,11.265224,
Mittenwald,559869,378840,47.440277,11.265089,
Mittenwald,559869,61395,47.440125,11.26517,
Mittenwald (Gr),,626776,47.39807,11.267443,1
Mittenwald(Gr),626776,38009,47.39807,11.267441,
Montabaur Bf,,383224,50.44483,7.825323,1
Montabaur Bf,383224,230734,50.44483,7.825323,
Mosonmagyarovar,,642812,47.850357,17.266424,1
Mosonmagyarovar,642812,181883,47.850357,17.266424,
Murnau,,653206,47.682266,11.192631,1
Murnau,653206,612493,47.682854,11.193053,
Murnau,653206,638370,47.68262,11.192559,
Mönchengladbach Hbf,365260,311200,51.19677,6.445852,
Mönchengladbach Hbf,365260,360611,51.196655,6.446095,
Mönchengladbach Hbf,365260,515003,51.196697,6.446014,
Mönchengladbach Hbf,365260,536228,51.196808,6.44578,
Mönchengladbach Hbf,365260,582692,51.19659,6.44623,
Mühlacker,133151,203071,48.953194,8.846101,
Mühlacker,133151,299177,48.95299,8.846079,
Mühlacker Bahnhof,,133151,48.95299,8.846079,1
Mülheim Hauptbahnhof,,29896,51.430553,6.886431,1
Mülheim(Ruhr)Hbf,29896,147067,51.43114,6.886665,
Müllheim (Baden) Bahnhof,,156055,47.809597,7.599487,1
Müllheim im Markgräflerland,156055,622395,47.809742,7.599332,
München Hbf,,499087,48.14029,11.559602,1
München Hbf,499087,117850,48.141537,11.556224,
München Hbf,499087,152701,48.139954,11.553799,
München Hbf,499087,166131,48.140232,11.558335,
München Hbf,499087,206285,48.139828,11.553727,
München Hbf,499087,222240,48.1399,11.553772,
München Hbf,499087,231560,48.1405,11.55759,
München Hbf,499087,233157,48.140182,11.557527,
München Hbf,499087,251853,48.14008,11.557518,
München Hbf,499087,281482,48.14065,11.557617,
München Hbf,499087,28427,48.140026,11.557518,
München Hbf,499087,318784,48.14134,11.556179,
München Hbf,499087,379184,48.140705,11.557617,
München Hbf,499087,40039,48.140236,11.557545,
München Hbf,499087,407570,48.141212,11.556161,
München Hbf,499087,416423,48.14086,11.557662,
München Hbf,499087,456201,48.140385,11.557572,
München Hbf,499087,460780,48.14097,11.557671,
München Hbf,499087,485776,48.14033,11.557572,
München Hbf,499087,500453,48.140812,11.557644,
München Hbf,499087,540508,48.140553,11.557608,
München Hbf,499087,59967,48.13994,11.557491,
München Hbf,499087,608748,48.14016,11.553898,
München Hbf,499087,617961,48.141293,11.556161,
München Hbf,499087,666220,48.13988,11.557491,
München Hbf,499087,667112,48.14141,11.556206,
München Ost,398971,75971,48.127304,11.605533,
München-Pasing,227657,157220,48.149853,11.461872,
Münster Hauptbahnhof,,131689,51.9567,7.63444,1
Münster(Westf)Hbf,131689,308763,51.95702,7.635446,
Münster(Westf)Hbf,131689,338844,51.956566,7.635715,
Münster(Westf)Hbf,131689,477516,51.95694,7.636075,
Münster(Westf)Hbf,131689,495878,51.95697,7.635815,
Münster(Westf)Hbf,131689,515019,51.956894,7.636452,
Münster(Westf)Hbf,131689,65909,51.95698,7.635743,
Mürzzuschlag,,505657,47.60795,15.677393,1
Mürzzuschlag,505657,285290,47.60795,15.677393,
Nagymaros-Visegrad,,398974,47.790894,18.9588,1
Nagymaros-Visegrad,398974,38135,47.790894,18.9588,
Naumburg(Saale)Hbf,,600467,51.16307,11.796988,1
Naumburg(Saale)Hbf,600467,73857,51.16307,11.796984,
Neu-Edingen/Friedrichsfeld,373394,114739,49.44867,8.580125,
Neu-Edingen/Friedrichsfeld,373394,632625,49.448425,8.58024,
Neu-Ulm,,641356,48.393044,10.004825,1
Neu-Ulm,641356,516511,48.393555,10.005768,
Neumarkt am Wallersee,,117498,47.95532,13.225574,1
Neumarkt am Wallersee,117498,366718,47.95532,13.225574,
Neumünster,,184006,54.07566,9.979757,1
Neumünster,184006,190507,54.075626,9.979576,
Neumünster,184006,246931,54.075653,9.979683,
Neumünster,184006,489585,54.075672,9.979839,
Neustadt(Weinstr)Hbf,57263,283111,49.34955,8.141557,
Neustadt(Weinstr)Hbf,57263,508435,49.349648,8.141584,
"Neustadt, Hauptbahnhof",,57263,49.35004,8.139967,1
Neustrelitz Hauptbahnhof,,584652,53.359474,13.07435,1
Neustrelitz Hbf,584652,158630,53.359257,13.074603,
Neustrelitz Hbf,584652,367163,53.359283,13.074503,
Niebüll,,456947,54.78956,8.834768,1
Niebüll,456947,30612,54.789547,8.834721,
Niebüll,456947,392216,54.789566,8.834805,
Niebüll neg,,157765,54.78955,8.832959,1
Niebüll neg,157765,580724,54.78955,8.832959,
Nienburg(Weser),,479535,52.645344,9.217862,1
Nienburg(Weser),479535,500285,52.64541,9.218015,
Nienburg(Weser),479535,523098,52.645363,9.2179,
Norddeich,331766,308203,53.621464,7.160943,
Norddeich,331766,659034,53.62158,7.160824,
Norddeich Mole,195169,428138,53.62432,7.158739,
Norddeich(Norden),,331766,53.62152,7.160884,1
Norddeich(Norden) Mole,,195169,53.62432,7.158739,1
Norden,450603,246678,53.587917,7.21929,
Norden,450603,287317,53.588104,7.219352,
Norden(Ostfriesl),,450603,53.588013,7.219321,1
Nordhausen,,567496,51.492924,10.789252,1
Nordhausen,567496,442774,51.49292,10.789249,
Nove Zamky,,412432,47.995003,18.173956,1
Nove Zamky,412432,52367,47.995003,18.173956,
Nürnberg Hbf,,517442,49.445614,11.082992,1
Nürnberg Hbf,517442,134492,49.44516,11.082417,
Nürnberg Hbf,517442,320925,49.44801,11.082327,
Nürnberg Hbf,517442,322618,49.445545,11.082228,
Nürnberg Hbf,517442,394600,49.44541,11.082291,
Nürnberg Hbf,517442,413553,49.445267,11.082363,
Nürnberg Hbf,517442,416355,49.44475,11.082632,
Nürnberg Hbf,517442,600273,49.444798,11.082623,
Nürnberg Hbf,517442,635798,49.445053,11.08248,
Nürnberg Hbf,517442,96069,49.445644,11.082165,
Oberhausen Hbf,,401960,51.474,6.853346,1
Oberhausen Hbf,401960,15063,51.474323,6.851891,
Oberhausen Hbf,401960,206978,51.474403,6.851738,
Oberhausen Hbf,401960,239607,51.47462,6.85128,
Oberhausen Hbf,401960,244604,51.47446,6.851612,
Oberndorf (Neckar) Bahnhof,,404104,48.29559,8.575291,1
Oberndorf(Neckar),404104,410153,48.295506,8.575614,
Oberndorf(Neckar),404104,648127,48.2955,8.575479,
Odense st,,56968,55.401775,10.386005,1
Odense st,56968,382004,55.401775,10.386005,
Oebisfelde,,207139,52.43927,10.983857,1
Oebisfelde,207139,124862,52.439274,10.983852,
Offenburg,119260,4797,48.476475,7.946723,
Offenburg Bahnhof,,119260,48.476387,7.946587,1
Oldenburg(Oldb)Hbf,130061,312214,53.14432,8.222713,
"Oldenburg, Hauptbahnhof",,130061,53.144222,8.222684,1
Olten,,590154,47.351936,7.9077,1
Olten,590154,321351,47.351936,7.9077,
Opoczno Poludnie,,666094,51.358517,20.231709,1
Opoczno Poludnie,666094,104603,51.358517,20.231709,
Opole Glowne,,10307,50.661514,17.925863,1
Opole Glowne,10307,346136,50.661514,17.925863,
Oranienburg,597242,268517,52.75412,13.249437,
Oranienburg,597242,281416,52.75408,13.249215,
Oranienburg,597242,424294,52.754093,13.249336,
Osnabrück Hbf,,662011,52.27313,8.060825,1
Osnabrück Hbf,662011,352757,52.272697,8.061522,
Osnabrück Hbf,662011,549160,52.27351,8.059799,
Osnabrück Hbf,662011,651442,52.273598,8.059918,
Osnabrück Hbf,662011,9089,52.272747,8.061333,
Ostbahnhof,,398971,48.128056,11.603646,1
Ostbahnhof,398971,443968,48.128296,11.604329,
Osterholz-Scharmbeck,,298969,53.222744,8.7974,1
Osterholz-Scharmbeck,298969,38331,53.22273,8.79746,
Osterholz-Scharmbeck,298969,570185,53.222763,8.797339,
Ostrava hl.n.,,480271,49.852085,18.267262,1
Ostrava hl.n.,480271,48801,49.852085,18.267262,
Ostseebad Binz,577561,334987,54.405552,13.599532,
Ostseebad Binz,577561,56531,54.4056,13.599694,
Oswiecim,,196244,50.041504,19.199724,1
Oswiecim,196244,426907,50.041504,19.199724,
Padborg st,,398434,54.82425,9.358803,1
Padborg st,398434,211312,54.82425,9.358803,
Paderborn Hbf,,599318,51.712917,8.739925,1
Paderborn Hbf,599318,454128,51.712894,8.740338,
Paderborn Hbf,599318,637025,51.71298,8.740505,
Papenburg(Ems),460781,46769,53.089706,7.386708,
"Papenburg, Bahnhof",,460781,53.090424,7.388122,1
Pardubice hl.n.,,450045,50.03174,15.756211,1
Pardubice hl.n.,450045,527733,50.03174,15.756211,
Paris Est,,610589,48.876976,2.35912,1
Paris Est,610589,410715,48.876976,2.35912,
Pasewalk,556657,184925,53.51519,13.988988,
Pasewalk,556657,7787,53.515354,13.988875,
Pasewalk Bahnhof,,556657,53.515038,13.989293,1
Pasing,,227657,48.1489,11.460428,1
Pasing,227657,124999,48.149197,11.459296,
Pasing,227657,60751,48.14933,11.458901,
Passau Hbf,,466061,48.57363,13.45078,1
Passau Hbf,466061,59450,48.57363,13.450776,
"Passau, Hbf",466061,143668,48.574203,13.451643,
"Passau, Hbf",466061,42397,48.574352,13.452756,
"Passau, Hbf",466061,562820,48.574345,13.452406,
Peine,515274,247055,52.31896,10.232197,
Peine,515274,38943,52.318916,10.231892,
"Peine, Bahnhof",,515274,52.318928,10.232422,1
Pforzheim Hauptbahnhof,,503245,48.89365,8.703453,1
Pforzheim Hbf,503245,127666,48.894154,8.703099,
Pforzheim Hbf,503245,612827,48.89421,8.702699,
Pforzheim Hbf,503245,97209,48.89414,8.702699,
Pinneberg,,226108,53.654922,9.798367,1
Pinneberg,226108,567231,53.65517,9.7976,
Plattling,,139343,48.77962,12.863938,1
Plattling,139343,533829,48.779617,12.86394,
"Plattling, Bahnhof",139343,286999,48.778957,12.864414,
"Plattling, Bahnhof",139343,324913,48.778976,12.864647,
"Plett., Bahnhof",,353597,51.232162,7.869206,1
Plettenberg,353597,201082,51.23205,7.867805,
Plettenberg,353597,656924,51.231792,7.86952,
Plochingen,,134963,48.71294,9.411299,1
Plochingen,134963,469313,48.71308,9.41081,
Potsdam Hbf,425958,110588,52.391582,13.06674,
Potsdam Hbf,425958,393527,52.391422,13.066721,
Potsdam Hbf,425958,604656,52.391666,13.066749,
Poznan Gl.,,109838,52.401993,16.91087,1
Poznan Gl.,109838,263192,52.401993,16.91087,
Praha hl.n.,,97014,50.08306,14.436039,1
Praha hl.n.,97014,488181,50.08306,14.436039,
Praha-Holesovice,,43328,50.110214,14.440013,1
Praha-Holesovice,43328,525711,50.110214,14.440013,
Prenzlau,91439,171990,53.32162,13.86654,
Prenzlau,91439,252534,53.321636,13.866409,
"Prenzlau, Bahnhof",,91439,53.321613,13.866558,1
Prien Prien Bahnhof,614265,429275,47.85454,12.346697,
Prien am Chiemsee,,614265,47.855515,12.346616,1
Prien am Chiemsee,614265,382709,47.854458,12.346733,
Prora,,58684,54.444996,13.564049,1
Prora,58684,323954,54.444984,13.564057,
Przemysl Glowny,,116760,49.78366,22.776363,1
Przemysl Glowny,116760,215234,49.78366,22.776363,
Przeworsk,,415606,50.067215,22.503357,1
Przeworsk,415606,182368,50.067215,22.503357,
Pulheim,158658,523042,50.998043,6.797051,
Pulheim Bf,,158658,50.99804,6.797049,1
Pörtschach am Wörther See,,207492,46.6362,14.146231,1
Pörtschach am Wörther See,207492,448140,46.6362,14.146231,
RV Bahnhof,,442072,47.784554,9.606673,1
Radolfzell,135865,595502,47.735676,8.969058,
Radolfzell,135865,605472,47.735714,8.969103,
Radolfzell Bahnhof,,135865,47.735924,8.969031,1
Radstadt,,159394,47.38424,13.467809,1
Radstadt,159394,386940,47.38424,13.467809,
Rankweil,,632574,47.273018,9.637252,1
Rankweil,632574,65544,47.273018,9.637252,
Ravensburg,442072,346343,47.78441,9.605964,
Ravensburg,442072,615099,47.784374,9.606126,
Recklinghausen Hbf,,558310,51.61598,7.201371,1
Recklinghausen Hbf,558310,158340,51.61667,7.203509,
Regensburg Hbf,,202054,49.01167,12.099624,1
Regensburg Hbf,202054,186891,49.012466,12.100397,
Regensburg Hbf,202054,199042,49.012447,12.097702,
Remagen,213482,70329,50.577213,7.229779,
Remagen Bf,,213482,50.57721,7.229767,1
Rheine,82861,246857,52.275837,7.434987,
Rheine,82861,422242,52.275906,7.435158,
Rheine,82861,475920,52.27575,7.434754,
"Rheine, Bahnhof",,82861,52.276505,7.435733,1
Rheinfelden(CH),,468349,47.551136,7.792434,1
Rheinfelden(CH),468349,269941,47.551136,7.792434,
Rheydt Hbf,420883,105537,51.162872,6.439879,
Rheydt Hbf,420883,292703,51.162872,6.439456,
Rheydt Hbf,420883,46658,51.16303,6.439564,
Ribnitz-Damgarten West,,215197,54.23918,12.436968,1
Ribnitz-Damgarten West,215197,101523,54.2392,12.437373,
Ribnitz-Damgarten West,215197,208012,54.239178,12.436965,
Ribnitz-Damgarten West,215197,629805,54.239265,12.437355,
Riesa,132095,199262,51.309536,13.287395,
Riesa,132095,380594,51.309734,13.288329,
Riesa,132095,460168,51.30983,13.288293,
Riesa,132095,93199,51.309654,13.287734,
Riesa Busbf/Bahnhof,,132095,51.3094,13.288383,1
Ringsheim Bahnhof,,221641,48.248672,7.773023,1
Ringsheim/Europa-Park,221641,138917,48.248726,7.773037,
Ringsheim/Europa-Park,221641,412882,48.248688,7.772987,
Ringsted st,,207538,55.438038,11.786155,1
Ringsted st,207538,437957,55.438038,11.786155,
Roedekro st,,631976,55.069687,9.332754,1
Roedekro st,631976,237094,55.069687,9.332754,
Rosenheim,,257985,47.850018,12.119207,1
Rosenheim,257985,11659,47.850853,12.118947,
Rosenheim,257985,181619,47.850906,12.118659,
Rosenheim,257985,327236,47.8508,12.118956,
Rosenheim,257985,590553,47.850853,12.118812,
Rosenheim,257985,73439,47.850956,12.118534,
Rostock Hauptbahnhof,,212179,54.07818,12.130724,1
Rostock Hbf,212179,199156,54.078262,12.131398,
Rostock Hbf,212179,246723,54.077587,12.132206,
Rostock Hbf,212179,555807,54.078526,12.1304,
Rostock Hbf,212179,623881,54.078247,12.131079,
Rostock Hbf,212179,633526,54.078724,12.130823,
Rostock Hbf,212179,69337,54.078793,12.130948,
Rotenburg(Wümme),,51253,53.112507,9.39068,1
Rotenburg(Wümme),51253,165513,53.112404,9.391142,
Rottweil,405485,180669,48.165527,8.63988,
Rottweil,405485,34822,48.16566,8.639871,
Rottweil Bahnhof,,405485,48.165253,8.640661,1
Rovereto,,262339,45.891174,11.034067,1
Rovereto,262339,661177,45.89096,11.033601,
Rudolstadt (Thüringen),,571899,50.718,11.339156,1
Rudolstadt(Thür),571899,543549,50.71793,11.338899,
Rzepin,,203736,52.350224,14.815073,1
Rzepin,203736,42366,52.350224,14.815073,
Rzeszow Gl.,,121586,50.043114,22.006798,1
Rzeszow Gl.,121586,511656,50.043114,22.006798,
S Bernau Bhf,,243391,52.675686,13.592695,1
S Charlottenburg Bhf (Berlin),,220479,52.50473,13.303862,1
S Königs Wusterhausen Bhf,,546737,52.29672,13.631534,1
S Königs Wusterhausen Bhf,546737,228256,52.296642,13.631479,
S Oranienburg Bhf,,597242,52.754486,13.248311,1
S Ostbahnhof (Berlin),,614574,52.51033,13.435086,1
S Ostkreuz Bhf (Berlin),,264082,52.503113,13.469221,1
S Potsdam Hauptbahnhof,,425958,52.391445,13.067157,1
S Spandau Bhf (Berlin),,119089,52.534798,13.197477,1
S Südkreuz Bhf (Berlin),,373482,52.475502,13.365552,1
S Wannsee Bhf (Berlin),,195961,52.421726,13.178932,1
S+U Berlin Hauptbahnhof,,208737,52.525604,13.369075,1
S+U Gesundbrunnen Bhf (Berlin),,184599,52.548637,13.388372,1
S+U Lichtenberg Bhf (Berlin),,139994,52.510674,13.498359,1
S+U Zoologischer Garten Bhf (Berlin),,98302,52.50692,13.332707,1
Saalfeld (Saale),,196835,50.65049,11.374546,1
Saalfeld(Saale),196835,653102,50.650272,11.374583,
Saarbrücken Hbf,,645944,49.24107,6.99102,1
Saarbrücken Hbf,645944,105073,49.241066,6.991021,
Saarbrücken Hbf,645944,174709,49.241337,6.991009,
Saarbrücken Hbf,645944,222439,49.241283,6.991011,
Saarbrücken Hbf,645944,547120,49.24148,6.991045,
Salzburg Hbf,,89370,47.81305,13.04582,1
Salzburg Hbf,89370,179178,47.81305,13.04582,
Salzburg Süd,,460489,47.770226,13.078491,1
Salzburg Süd,460489,471310,47.770226,13.078491,
Salzwedel,,51758,52.858116,11.162038,1
Salzwedel,51758,465237,52.858112,11.162035,
Sangerhausen,,139201,51.47989,11.294514,1
Sangerhausen,139201,562970,51.479893,11.294515,
Sargans,,642633,47.044823,9.44626,1
Sargans,642633,193784,47.044823,9.44626,
Schaffhausen,,293139,47.69828,8.632756,1
Schaffhausen,293139,297882,47.69828,8.632756,
Schladming,,522406,47.393826,13.678151,1
Schladming,522406,433328,47.393826,13.678151,
Schleswig,,314501,54.499516,9.538149,1
Schleswig,314501,1515,54.499577,9.538158,
Schleswig,314501,301815,54.49946,9.53814,
Schlüchtern,125398,1539,50.340927,9.509989,
Schlüchtern Bahnhof,,125398,50.340816,9.510662,1
Schorndorf,,636483,48.80694,9.52569,1
Schorndorf,636483,267780,48.806984,9.525861,
Schorndorf,636483,345537,48.80708,9.52578,
Schw. Gmünd Bahnhof,,265029,48.800285,9.787118,1
Schwarzach-St.Veit,,74380,47.318535,13.154464,1
Schwarzach-St.Veit,74380,410424,47.318535,13.154464,
Schweinfurt Hbf,,112077,50.03531,10.21292,1
Schweinfurt Hbf,112077,286267,50.035313,10.212919,
Schwerin Hauptbahnhof,,445640,53.6347,11.407499,1
Schwerin Hbf,445640,133218,53.63474,11.407455,
Schwerin Hbf,445640,322335,53.635628,11.407445,
Schwerin Hbf,445640,337140,53.63563,11.407544,
Schwäbisch Gmünd,265029,40940,48.801086,9.788097,
Schwäbisch Gmünd,265029,558986,48.80097,9.787504,
Schärding,,168767,48.46372,13.442511,1
Schärding,168767,562808,48.46372,13.442511,
Schöna(Gr),,614023,50.860054,14.222133,1
Schöna(Gr),614023,46076,50.860054,14.222133,
Schönefeld(bei Berlin),497385,668668,52.39115,13.512816,
Seefeld in Tirol,,96352,47.32873,11.189483,1
Seefeld in Tirol,96352,538510,47.32873,11.189483,
Selzthal,,157467,47.550243,14.312841,1
Selzthal,157467,550717,47.550243,14.312841,
Semmering,,179954,47.639553,15.830923,1
Semmering,179954,6243,47.639553,15.830923,
Sentilj,,565401,46.674225,15.657976,1
Sentilj,565401,628185,46.674225,15.657976,
Sevnica,,160837,46.009678,15.301231,1
Sevnica,160837,305787,46.009678,15.301231,
Siegburg Bf,,44567,50.79392,7.203024,1
Siegburg/Bonn,44567,476407,50.79384,7.202854,
Siegburg/Bonn,44567,656838,50.79375,7.202647,
Siegen Hbf,,384688,50.875893,8.016278,1
Siegen Hbf,384688,101677,50.876507,8.01715,
Siegen Hbf,384688,664838,50.876408,8.017311,
Siegen-Weidenau,232723,165907,50.895786,8.02978,
Siegen-Weidenau,232723,187249,50.8958,8.029959,
Siegen-Weidenau Bf,,232723,50.895866,8.029861,1
Singen (Htw) Bahnhof,,644790,47.75903,8.841408,1
Singen(Hohentwiel),644790,232147,47.75876,8.841471,
Singen(Hohentwiel),644790,373297,47.75892,8.841381,
Singen(Hohentwiel),644790,427703,47.7586,8.840231,
Singen(Hohentwiel),644790,556720,47.75903,8.841219,
Sissach,,437408,47.46264,7.811977,1
Sissach,437408,117405,47.46264,7.811977,
Skawina,,107063,49.977108,19.821957,1
Skawina,107063,346773,49.977108,19.821957,
Soest,639277,613625,51.5783,8.105409,
Soest,639277,663169,51.57819,8.105337,
"Soest, Bahnhof",,639277,51.57811,8.104223,1
Solingen Hbf,,80072,51.16073,7.003688,1
Solingen Hbf,80072,470678,51.160824,7.004128,
Solingen Hbf,80072,54997,51.161087,7.003985,
Solingen Hbf,80072,656831,51.160767,7.004187,
Sopot,,33463,54.440166,18.562323,1
Sopot,33463,432102,54.440166,18.562323,
Spaichingen,241197,242328,48.068832,8.741704,
Spaichingen,241197,554327,48.068996,8.741704,
Spaichingen Bahnhof,,241197,48.06909,8.74094,1
Spielfeld(Gr),,127624,46.694782,15.642195,1
Spielfeld(Gr),127624,558185,46.694782,15.642195,
Spielfeld-Straß,,380487,46.709568,15.629238,1
Spielfeld-Straß,380487,86434,46.709568,15.629238,
Spiez,,644684,46.686398,7.680103,1
Spiez,644684,320654,46.686398,7.680103,
Spittal-Millstättersee,,628533,46.7957,13.487416,1
Spittal-Millstättersee,628533,348541,46.7957,13.487416,
St. Anton am Arlberg,,94146,47.127563,10.26699,1
St. Anton am Arlberg,94146,246190,47.127563,10.26699,
St. Gallen(CH),,14494,47.42318,9.369897,1
St. Gallen(CH),14494,180910,47.42318,9.369897,
St. Johann im Pongau,,106715,47.348377,13.194961,1
St. Johann im Pongau,106715,469342,47.348377,13.194961,
St. Margrethen SG,,4967,47.453217,9.638262,1
St. Margrethen SG,4967,486213,47.453217,9.638262,
St. Valentin,,315676,48.179146,14.521846,1
St. Valentin,315676,527445,48.179146,14.521846,
St.Michael in Obersteiermark,,418516,47.346622,15.009187,1
St.Michael in Obersteiermark,418516,97779,47.346622,15.009187,
St.Pölten Hbf,,236976,48.208275,15.624683,1
St.Pölten Hbf,236976,599110,48.208275,15.624683,
Stadt Rottenmann,,583607,47.52723,14.367174,1
Stadt Rottenmann,583607,410360,47.52723,14.367174,
Stadtroda,,400694,50.86817,11.723213,1
Stadtroda,400694,576462,50.868217,11.722792,
Stainach-Irdning,,292936,47.529194,14.106753,1
Stainach-Irdning,292936,640123,47.529194,14.106753,
Stein-Säckingen,,419142,47.541477,7.948573,1
Stein-Säckingen,419142,352524,47.541477,7.948573,
Steinach (b Rothenburg o.d.T.),,241862,49.45322,10.273538,1
Steinach(bei Rothenburg ob der Tauber),241862,398706,49.453743,10.273295,
Steinach(bei Rothenburg ob der Tauber),241862,511264,49.453003,10.274113,
Stendal Hbf,,269244,52.59472,11.854412,1
Stendal Hbf,269244,76365,52.594723,11.854412,
Stralsund Hauptbahnhof,,136477,54.309105,13.077773,1
Stralsund Hbf,136477,242326,54.308075,13.078294,
Stralsund Hbf,136477,269469,54.30812,13.078464,
Stralsund Hbf,136477,368055,54.308174,13.078698,
Stralsund Hbf,136477,443301,54.308624,13.077321,
Stralsund Hbf,136477,498192,54.30801,13.078087,
Stralsund Hbf,136477,502255,54.30815,13.07859,
Stralsund Hbf,136477,8104,54.308037,13.078177,
Strasbourg,,340931,48.58534,7.734067,1
Strasbourg,340931,632233,48.58534,7.734067,
Straubing,,371159,48.87698,12.574096,1
Straubing,371159,555620,48.87692,12.574492,
Sturovo,,669059,47.800125,18.67992,1
Sturovo,669059,24290,47.800125,18.67992,
Stuttgart Hauptbahnhof (oben),,197113,48.784878,9.182794,1
Stuttgart Hbf,197113,499524,48.784748,9.183217,
Stuttgart Hbf,197113,580040,48.784084,9.181635,
Stuttgart Untertürkheim,,669217,48.779846,9.250465,1
Stuttgart Vaihingen,,266752,48.72698,9.113912,1
Stuttgart-Untertürkheim,669217,1073,48.77975,9.250569,
Stuttgart-Vaihingen,266752,550119,48.72628,9.113226,
Sulz (Neckar) Bahnhof,,409980,48.367237,8.637724,1
"Sulz Bahnhof,Sulz (Neckar)",409980,550985,48.367573,8.637867,
Swiebodzin,,292039,52.245144,15.53954,1
Swiebodzin,292039,251854,52.245144,15.53954,
Szob,,82782,47.821,18.862057,1
Szob,82782,593876,47.821,18.862057,
Szob(Gr),,619674,47.824898,18.844774,1
Szob(Gr),619674,322310,47.824898,18.844774,
Tarnow,,393776,50.0054,20.97418,1
Tarnow,393776,292588,50.0054,20.97418,
Tatabanya,,627921,47.58493,18.393612,1
Tatabanya,627921,277456,47.58493,18.393612,
Tczew,,234909,54.09732,18.790155,1
Tczew,234909,17978,54.09732,18.790155,
Telfs-Pfaffenhofen,,173253,47.30071,11.078869,1
Telfs-Pfaffenhofen,173253,408415,47.30071,11.078869,
Thun,,363851,46.754692,7.629414,1
Thun,363851,244747,46.754692,7.629414,
Tinglev st,,517036,54.936172,9.258234,1
Tinglev st,517036,303162,54.936172,9.258234,
Traunstein,,284553,47.86973,12.638802,1
Traunstein,284553,488952,47.868744,12.638541,
Traunstein Bahnhof,284553,440119,47.86896,12.638703,
Trebbin,134584,441523,52.21658,13.229556,
"Trebbin, Bahnhof",,134584,52.21706,13.229958,1
Trento,,410943,46.07229,11.1189,1
Trento,410943,558626,46.07229,11.1189,
Treuchtlingen,,540147,48.96127,10.908162,1
Treuchtlingen,540147,245333,48.96137,10.908305,
Treuchtlingen,540147,365916,48.96102,10.908135,
Treuchtlingen,540147,445638,48.96105,10.907919,
Treuchtlingen,540147,472888,48.961037,10.907991,
"Treuchtlingen, Bahnhof",540147,425024,48.960934,10.908835,
Treysa,,24890,50.91066,9.185673,1
Treysa,24890,423210,50.91066,9.185673,
Tuttlingen,606682,504568,47.980232,8.798486,
Tuttlingen,606682,539873,47.98054,8.798271,
Tuttlingen Bahnhof,,606682,47.980335,8.79942,1
Tutzing,,41645,47.9074,11.273731,1
Tutzing,41645,13823,47.907143,11.27289,
Tutzing,41645,219983,47.90803,11.274117,
Tutzing,41645,46245,47.907097,11.272716,
Uelzen,,475405,52.96979,10.553017,1
Uelzen,475405,179393,52.969612,10.553516,
Uelzen,475405,582389,52.969837,10.55279,
Uelzen,475405,66485,52.969658,10.553415,
Ulm Hauptbahnhof,,172210,48.399364,9.984146,1
Ulm Hbf,172210,209856,48.399345,9.982933,
Ulm Hbf,172210,343483,48.399345,9.982816,
Ulm Hbf,172210,585248,48.3994,9.982608,
Usti nad Labem hl.n.,,87822,50.65956,14.044728,1
Usti nad Labem hl.n.,87822,41222,50.65956,14.044728,
Utrecht Centraal,,180688,52.089397,5.109861,1
Utrecht Centraal,180688,524458,52.089397,5.109861,
Vac,,373442,47.782726,19.13306,1
Vac,373442,463610,47.782726,19.13306,
Vaihingen (E),,227778,48.94815,8.957578,1
Vaihingen(Enz),227778,342202,48.948116,8.957632,
Vaihingen(Enz),227778,645925,48.948555,8.956527,
Vaihingen(Enz),227778,652698,48.948746,8.956868,
Vamdrup st,,603583,55.428093,9.286454,1
Vamdrup st,603583,143966,55.428093,9.286454,
Velden am Wörther See,,218326,46.62005,14.044838,1
Velden am Wörther See,218326,81689,46.62005,14.044838,
Velgast,,592833,54.277256,12.803149,1
Velgast,592833,114255,54.277317,12.803137,
Velgast,592833,564328,54.277435,12.803131,
Venlo(Gr),,221638,51.340893,6.192712,1
Venlo(Gr),221638,568809,51.340893,6.192712,
Verden(Aller),,26617,52.920864,9.237906,1
Verden(Aller),26617,170224,52.920853,9.237766,
Verden(Aller),26617,276434,52.920876,9.237633,
Verona Porta Nuova,,65440,45.428658,10.982739,1
Verona Porta Nuova,65440,286501,45.428658,10.982739,
Viersen,129443,545418,51.254696,6.404701,
Viersen,129443,655131,51.254948,6.403896,
Viersen Bahnhof,,129443,51.2545,6.404,1
Villach Hbf,,475029,46.618626,13.848536,1
Villach Hbf,475029,294517,46.618626,13.848536,
Visp,,286293,46.29403,7.881465,1
Visp,286293,76708,46.29403,7.881465,
Vojens st,,605308,55.248478,9.304915,1
Vojens st,605308,150136,55.248478,9.304915,
Vöcklabruck,,56763,48.010067,13.663703,1
Vöcklabruck,56763,340044,48.010067,13.663703,
Wabern(Bz Kassel),,109491,51.103134,9.35804,1
Wabern(Bz Kassel),109491,91216,51.103134,9.35804,
Wanne-Eickel Hbf,336772,294240,51.531357,7.166247,
Wanne-Eickel Hbf,336772,3088,51.531303,7.166328,
Wanne-Eickel Hbf,336772,448679,51.531258,7.165783,
Wanne-Eickel Hbf,336772,575595,51.531445,7.166122,
Warburg(Westf),315300,252530,51.492992,9.164235,
Warburg(Westf),315300,75610,51.49288,9.164163,
"Warburg, Bahnhof",,315300,51.492752,9.163858,1
Waren (Müritz) Bahnhof,,177889,53.52151,12.681077,1
Waren(Müritz),177889,110848,53.521687,12.680672,
Waren(Müritz),177889,51223,53.52151,12.680678,
Waren(Müritz),177889,82347,53.52164,12.680484,
Warnemünde,,561591,54.17711,12.090839,1
Warnemünde,561591,15109,54.177235,12.091027,
Warnemünde,561591,465397,54.177288,12.091225,
Warszawa Centralna,,62831,52.22886,21.003235,1
Warszawa Centralna,62831,83370,52.22886,21.003235,
Warszawa Wschodnia,,58384,52.25155,21.052336,1
Warszawa Wschodnia,58384,388531,52.25155,21.052336,
Warszawa Zachodnia,,172,52.21997,20.965246,1
Warszawa Zachodnia,172,547239,52.21997,20.965246,
Weil am Rhein,491342,250227,47.59364,7.608497,
Weil am Rhein,491342,92310,47.59368,7.608245,
Weil am Rhein Bahnhof,,491342,47.593693,7.608739,1
Weilheim (Oberbay),,526079,47.845364,11.142855,1
Weilheim(Oberbay),526079,105120,47.845917,11.144185,
Weilheim(Oberbay),526079,437161,47.845417,11.143017,
Weimar,,141458,50.991486,11.326463,1
Weimar,141458,577501,50.991486,11.326458,
Weinheim(Bergstr)Hbf,320179,322064,49.55361,8.665401,
Weinheim(Bergstr)Hbf,320179,80619,49.553547,8.665607,
"Weinheim, Hauptbahnhof",,320179,49.55333,8.665697,1
Weißenfels,,528243,51.204613,11.970925,1
Weißenfels,528243,661584,51.204617,11.970926,
Wels Hbf,,343690,48.166077,14.026569,1
Wels Hbf,343690,480967,48.166077,14.026569,
Werdohl,169381,15343,51.25946,7.757393,
Werdohl,169381,607375,51.259377,7.757438,
"Werdohl, Bahnhof",,169381,51.259167,7.757734,1
Werfen,,356393,47.4726,13.195183,1
Werfen,356393,244454,47.4726,13.195183,
Werne a d Lippe,652385,295319,51.66925,7.622934,
"Werne, Bahnhof",,652385,51.669277,7.623499,1
Westerland(Sylt),581027,438044,54.90696,8.311079,
Westerland(Sylt),581027,80622,54.90691,8.311029,
Westerland(Sylt) ZOB/Bahnhof,,581027,54.90688,8.310999,1
Westerstede-Ocholt,,355914,53.20229,7.886531,1
Westerstede-Ocholt,355914,500882,53.202248,7.886519,
Westerstede-Ocholt,355914,550655,53.202328,7.886542,
Wetzlar,123701,73249,50.56566,8.504213,
Wetzlar Bahnhof,,123701,50.56566,8.504213,1
Wien Hauptbahnhof,,332147,48.185104,16.377113,1
Wien Hbf,332147,64962,48.1851,16.377113,
Wien Meidling,,394293,48.17445,16.333088,1
Wien Meidling,394293,517180,48.17445,16.333088,
Wiener Neustadt Hbf,,256726,47.81056,16.233187,1
Wiener Neustadt Hbf,256726,90932,47.81056,16.233187,
Wiesbaden Hauptbahnhof,,650367,50.069477,8.244631,1
Wiesbaden Hbf,650367,194525,50.069477,8.244631,
Wiesbaden Hbf,650367,422055,50.06972,8.243677,
Wiesloch-Walldorf,109547,303299,49.291355,8.664377,
Wiesloch-Walldorf,109547,539094,49.290966,8.66417,
"Wiesloch-Walldorf, Bf",,109547,49.291016,8.664449,1
Winterthur,,178100,47.500336,8.723821,1
Winterthur,178100,549771,47.500336,8.723821,
Witten Hbf,,536225,51.43542,7.330217,1
Witten Hbf,536225,127627,51.435375,7.329327,
Witten Hbf,536225,38383,51.435543,7.329442,
Witten Hbf,536225,518840,51.435436,7.32948,
Wloszczowa Polnoc,,602288,50.85811,19.947002,1
Wloszczowa Polnoc,602288,113161,50.85811,19.947002,
Wolfsburg Hbf,102886,105904,52.429382,10.787698,
Wolfsburg Hbf,102886,159175,52.429497,10.787784,
Wolfsburg Hbf,102886,337628,52.429554,10.787913,
Wolfsburg Hbf,102886,494502,52.429665,10.787913,
"Wolfsburg, Hauptbahnhof",,102886,52.42946,10.78776,1
Worms Hbf,102753,348273,49.63501,8.356596,
"Worms, Hauptbahnhof",,102753,49.635113,8.356955,1
Wroclaw Glowny,,50541,51.09808,17.037088,1
Wroclaw Glowny,50541,4234,51.09808,17.037088,
Wunstorf,,392424,52.422344,9.450421,1
Wunstorf,392424,235345,52.422226,9.450976,
Wuppertal Hbf,,597414,51.25508,7.149323,1
Wuppertal Hbf,597414,277105,51.254417,7.150114,
Wuppertal Hbf,597414,82862,51.254597,7.150042,
Wörgl Hbf,,279579,47.4918,12.060581,1
Wörgl Hbf,279579,186066,47.4918,12.060581,
Würzburg Hbf,,225169,49.801796,9.93578,1
Würzburg Hbf,225169,15791,49.801895,9.935897,
Würzburg Hbf,225169,218703,49.80226,9.936041,
Würzburg Hbf,225169,219785,49.801796,9.93578,
Würzburg Hbf,225169,339962,49.80213,9.935987,
Würzburg Hbf,225169,622645,49.802395,9.936113,
Würzburg Hbf,225169,89537,49.802,9.935924,
Zabrze,,470946,50.30528,18.786947,1
Zabrze,470946,645081,50.30528,18.786947,
Zagreb Glavni kolodvor,,626658,45.80444,15.978705,1
Zagreb Glavni kolodvor,626658,551898,45.80444,15.978705,
Zapresic,,239650,45.844494,15.813187,1
Zapresic,239650,538203,45.844494,15.813187,
Zbaszynek,,614018,52.242508,15.818092,1
Zbaszynek,614018,176318,52.242508,15.818092,
Zebrzydowice,,617617,49.87049,18.623697,1
Zebrzydowice,617617,388352,49.87049,18.623697,
Zebrzydowice(Gr),,214000,49.881973,18.576674,1
Zebrzydowice(Gr),214000,203632,49.881973,18.576674,
Zidani Most,,365294,46.085587,15.170324,1
Zidani Most,365294,25688,46.085587,15.170324,
Zielona Gora Gl.,,469059,51.947437,15.513709,1
Zielona Gora Gl.,469059,23369,51.947437,15.513709,
Zürich Flughafen,,22414,47.450386,8.562402,1
Zürich Flughafen,22414,434937,47.450386,8.562402,
Zürich HB,,262467,47.378178,8.540212,1
Zürich HB,262467,305669,47.378178,8.540212,
Züssow,,318179,53.97505,13.547026,1
Züssow,318179,54214,53.972515,13.550179,
Züssow,318179,573714,53.97243,13.549999,
Ötztal,,477049,47.238483,10.859114,1
Ötztal,477049,157588,47.238483,10.859114,
Übersee,,651238,47.822044,12.487337,1
Übersee,651238,545014,47.8221,12.487651,
Übersee Bahnhof,651238,490262,47.82184,12.486681,
